[
    {
        "streetAddress": "801 SW 10th Ave",
        "city": "Portland",
        "state": "OR",
        "zipcode": "97205",
        "name": "Multnomah County Library - Central",
        "category": "Library",
        "url": "https://multcolib.org/library-location/central",
        "phoneNumber": "(503) 988-5123",
        "address": "",
        "latitude": "45.51936",
        "longitude": "-122.68253",
        "hours": ""
    },
    {
        "streetAddress": "385 NW Miller Ave",
        "city": "Gresham",
        "state": "OR",
        "zipcode": "97030",
        "name": "Multnomah County Library - Gresham",
        "category": "Library",
        "url": "https://multcolib.org/library-location/gresham",
        "phoneNumber": "(503) 988-5123",
        "address": "",
        "latitude": "45.50072",
        "longitude": "-122.43288",
        "hours": ""
    },
    {
        "streetAddress": "805 SE 122nd Ave",
        "city": "Portland",
        "state": "OR",
        "zipcode": "97233",
        "name": "Multnomah County Library - Midland",
        "category": "Library",
        "url": "https://multcolib.org/library-location/midland",
        "phoneNumber": "(503) 988-5123",
        "address": "",
        "latitude": "45.51625",
        "longitude": "-122.53841",
        "hours": ""
    },
    {
        "streetAddress": "4040 NE Tillamook St",
        "city": "Portland",
        "state": "OR",
        "zipcode": "97212",
        "name": "Multnomah County Library - Hollywood",
        "category": "Library",
        "url": "https://multcolib.org/library-location/hollywood",
        "phoneNumber": "(503) 988-5123",
        "address": "",
        "latitude": "45.51625",
        "longitude": "-122.62154",
        "hours": ""
    },
    {
        "streetAddress": "17917 SE Stark St",
        "city": "Portland",
        "state": "OR",
        "zipcode": "97233",
        "name": "Multnomah County Library - Rockwood",
        "category": "Library",
        "url": "https://multcolib.org/library-location/rockwood",
        "phoneNumber": "(503) 988-5123",
        "address": "",
        "latitude": "45.519708",
        "longitude": "-122.479051",
        "hours": ""
    },
    {
        "streetAddress": "738 NE Davis St",
        "city": "Portland",
        "state": "OR",
        "zipcode": "97232",
        "name": "Janus Youth Programs",
        "category": "Homeless Youth Continuum",
        "url": "http://www.janusyouth.org/",
        "phoneNumber": "(503) 233-6090",
        "address": "",
        "latitude": "45.524756",
        "longitude": "-122.65703",
        "hours": ""
    },
    {
        "streetAddress": "5135 NE Columbia Blvd",
        "city": "Portland",
        "state": "OR",
        "zipcode": "97218",
        "name": "Native American Youth and Family Center",
        "category": "Homeless Youth Continuum",
        "url": "https://nayapdx.org/",
        "phoneNumber": "(503) 288-8177",
        "address": "",
        "latitude": "45.571172",
        "longitude": "-122.609356",
        "hours": ""
    },
    {
        "streetAddress": "1132 SW 13th Ave",
        "city": "Portland",
        "state": "OR",
        "zipcode": "97205",
        "name": "Outside In",
        "category": "Homeless Youth Continuum",
        "url": "https://outsidein.org/",
        "phoneNumber": "(503) 535-3800",
        "address": "",
        "latitude": "45.518828",
        "longitude": "-122.685906",
        "hours": ""
    },
    {
        "streetAddress": "314 SW 9th Ave",
        "city": "Portland",
        "state": "OR",
        "zipcode": "97205",
        "name": "New Avenues for Youth",
        "category": "Homeless Youth Continuum",
        "url": "https://newavenues.org/",
        "phoneNumber": "(503) 224-4339",
        "address": "",
        "latitude": "45.522917",
        "longitude": "-122.679917",
        "hours": ""
    },
    {
        "streetAddress": "501 N Dixon St.",
        "city": "Portland",
        "state": "OR",
        "zipcode": "97227",
        "name": "Portland Public Schools McKinney-Vento Homeless Program",
        "category": "Homeless Youth Liaisons",
        "url": "https://www.pps.net/Page/1429",
        "phoneNumber": "(503) 916-2000",
        "address": "",
        "latitude": "45.53519",
        "longitude": "-122.67167",
        "hours": ""
    },
    {
        "streetAddress": "1331 NW Eastman Pkwy",
        "city": "Gresham",
        "state": "OR",
        "zipcode": "97030",
        "name": "Gresham-Barlow Schools  McKinney-Vento Homeless Program",
        "category": "Homeless Youth Liaisons",
        "url": "https://www.gresham.k12.or.us/Page/2063",
        "phoneNumber": "503-261-4553",
        "address": "",
        "latitude": "45.50689",
        "longitude": "-122.43557",
        "hours": ""
    },
    {
        "streetAddress": "1333 NW Eastman Pkwy",
        "city": "Gresham",
        "state": "OR",
        "zipcode": "97030",
        "name": "Gresham Police Department",
        "category": "Police Station",
        "url": "http://greshamoregon.gov/",
        "phoneNumber": "(503) 618-2318",
        "address": "",
        "latitude": "45.50629",
        "longitude": "-122.435928",
        "hours": ""
    },
    {
        "streetAddress": "737 SE 106th Ave",
        "city": "Portland",
        "state": "OR",
        "zipcode": "97216",
        "name": "Portland Police Bureau: East Precinct",
        "category": "Police Station",
        "url": "https://www.portlandoregon.gov/police/article420227",
        "phoneNumber": "(503) 823-4800",
        "address": "",
        "latitude": "45.51644",
        "longitude": "-122.55398",
        "hours": ""
    },
    {
        "streetAddress": "55 SW Ash Street",
        "city": "Portland",
        "state": "OR",
        "zipcode": "97204",
        "name": "Portland Fire Station 01 - Old Town",
        "category": "Fire Station",
        "url": "https://www.portlandoregon.gov/fire/article/56351",
        "phoneNumber": "(503) 823-3700",
        "address": "",
        "latitude": "45.522026",
        "longitude": "-122.670695",
        "hours": ""
    },
    {
        "streetAddress": "4800 NE 122nd Avenue",
        "city": "Portland",
        "state": "OR",
        "zipcode": "97220",
        "name": "Portland Fire Station 02 - Parkrose",
        "category": "Fire Station",
        "url": "https://www.portlandoregon.gov/fire/article/56352",
        "phoneNumber": "(503) 823-3700",
        "address": "",
        "latitude": "45.557801",
        "longitude": "-122.536896",
        "hours": ""
    },
    {
        "streetAddress": "1715 NW Johnson Street",
        "city": "Portland",
        "state": "OR",
        "zipcode": "97209",
        "name": "Portland Fire Station 03 - Northwest Pearl District",
        "category": "Fire Station",
        "url": "https://www.portlandoregon.gov/fire/article/56357",
        "phoneNumber": "(503) 823-3700",
        "address": "",
        "latitude": "45.529086",
        "longitude": "-122.688802",
        "hours": ""
    },
    {
        "streetAddress": "511 SW College Street",
        "city": "Portland",
        "state": "OR",
        "zipcode": "97201",
        "name": "Portland Fire Station 04 - Portland State University",
        "category": "Fire Station",
        "url": "https://www.portlandoregon.gov/fire/article/56363",
        "phoneNumber": "(503) 823-3700",
        "address": "",
        "latitude": "45.509937",
        "longitude": "-122.682817",
        "hours": ""
    },
    {
        "streetAddress": "1505 SW DeWitt Street",
        "city": "Portland",
        "state": "OR",
        "zipcode": "97239",
        "name": "Portland Fire Station 05 - Hillsdale",
        "category": "Fire Station",
        "url": "https://www.portlandoregon.gov/fire/article/56368",
        "phoneNumber": "(503) 823-3700",
        "address": "",
        "latitude": "45.480613",
        "longitude": "-122.693258",
        "hours": ""
    },
    {
        "streetAddress": "7737 SW Capitol Highway",
        "city": "Portland",
        "state": "OR",
        "zipcode": "97219",
        "name": "Starbucks - Multnomah",
        "category": "Starbucks",
        "url": "https://www.starbucks.com/store-locator/store/9048/multnomah-7737-sw-capitol-highway-portland-or-972192458-us",
        "phoneNumber": "(503) 245-1961",
        "address": "",
        "latitude": "45.46933",
        "longitude": "-122.711409",
        "hours": ""
    },
    {
        "streetAddress": "525 NE Grand Avenue",
        "city": "Portland",
        "state": "OR",
        "zipcode": "97232",
        "name": "Starbucks - NE Grand and Lloyd",
        "category": "Starbucks",
        "url": "https://www.starbucks.com/store-locator/store/18323/ne-grand-and-lloyd-525-ne-grand-avenue-portland-or-972322726-us",
        "phoneNumber": "(503) 231-2793",
        "address": "",
        "latitude": "45.527107",
        "longitude": "-122.660854",
        "hours": ""
    }
]